,City,Cloudiness,Country,Date,Humidity,Lat,Lng,Max Temp,Wind Speed
0,Vryburg,23,ZA,1561588378,77,-26.96,24.73,51.71,18.19
1,Albany,75,US,1561588081,45,42.65,-73.75,86.0,10.29
2,Westport,3,US,1561588381,45,41.14,-73.36,88.0,3.29
3,Severo-Kurilsk,100,RU,1561588382,97,50.68,156.12,41.09,14.92
4,Ornskoldsvik,63,SE,1561588199,54,63.29,18.72,55.4,13.87
5,Busselton,25,AU,1561588384,45,-33.64,115.35,57.0,32.19
6,Puerto Ayora,20,EC,1561588385,61,-0.74,-90.35,80.6,23.04
7,Vila,0,IT,1561588387,78,45.18,8.4,86.0,2.24
8,Butaritari,83,KI,1561588388,77,3.07,172.79,83.39,13.22
9,Santona,2,ES,1561588389,82,43.44,-3.46,69.8,8.05
10,Arraial do Cabo,0,BR,1561588390,78,-22.97,-42.02,82.4,5.82
11,Puerto El Triunfo,75,SV,1561588391,59,13.27,-88.55,91.4,4.7
12,Mount Isa,37,AU,1561588392,50,-20.73,139.49,55.4,5.82
13,Cape Town,0,ZA,1561588228,93,-33.93,18.42,52.0,8.05
14,Punta Arenas,0,CL,1561588395,80,-53.16,-70.91,30.2,8.05
15,Rikitea,44,PF,1561588396,81,-23.12,-134.97,74.39,11.18
16,Novaya Lyada,88,RU,1561588397,84,52.71,41.64,58.55,8.88
17,Haines Junction,99,CA,1561588398,59,60.75,-137.51,59.99,2.13
18,Vaini,95,IN,1561588399,88,15.34,74.49,77.99,4.38
19,Huilong,100,CN,1561588400,96,31.15,106.5,70.79,4.41
20,Tiksi,3,RU,1561588401,39,71.64,128.87,68.09,10.6
21,Lompoc,1,US,1561588220,56,34.64,-120.46,73.0,14.99
22,Damilag,100,PH,1561588407,94,8.35,124.81,77.0,5.99
23,Khatanga,0,RU,1561588408,41,71.98,102.47,53.15,8.97
24,Mount Hagen,100,PG,1561588409,81,-5.86,144.23,59.81,3.98
25,Port Alfred,81,ZA,1561588410,87,-33.59,26.89,60.01,7.0
26,Ushuaia,75,AR,1561588411,79,-54.81,-68.31,28.4,20.8
27,Taksimo,100,RU,1561588412,56,56.36,114.84,61.97,3.06
28,Medvezhyegorsk,66,RU,1561588414,74,62.92,34.47,49.19,5.41
29,Jati,16,PK,1561588415,78,24.35,68.27,83.39,15.48
30,Newport,90,US,1561588178,88,41.49,-71.31,80.01,9.17
31,Jamestown,0,AU,1561588210,55,-33.21,138.6,58.37,16.89
32,Flinders,20,AU,1561588419,100,-34.58,150.85,61.0,5.82
33,Ribeira Grande,94,PT,1561588420,75,38.52,-28.7,65.39,15.21
34,Vanimo,33,PG,1561588421,72,-2.67,141.3,81.95,3.36
35,Koumac,96,NC,1561588422,92,-20.56,164.28,71.69,15.32
36,Boguchar,21,RU,1561588423,77,49.93,40.55,58.01,3.0
37,Baykit,83,RU,1561588424,51,61.68,96.39,71.33,2.71
38,Atuona,0,PF,1561588426,77,-9.8,-139.03,80.51,16.91
39,Tautira,75,PF,1561588427,70,-17.73,-149.15,84.2,10.29
40,Hilo,20,US,1561588428,51,19.71,-155.08,86.0,11.41
41,Karratha,91,AU,1561588429,53,-20.74,116.85,68.09,2.84
42,Havoysund,75,NO,1561588430,81,71.0,24.66,46.4,27.51
43,East London,59,ZA,1561588434,58,-33.02,27.91,59.09,13.56
44,Dingle,100,PH,1561588435,82,11.0,122.67,80.15,7.72
45,Dikson,100,RU,1561588437,94,73.51,80.55,33.71,17.11
46,Barrow,99,AR,1561588438,33,-38.31,-60.23,50.81,21.47
47,Kodiak,1,US,1561588439,54,39.95,-94.76,87.01,11.41
48,Bathsheba,20,BB,1561588440,74,13.22,-59.52,82.4,17.22
49,Tuatapere,92,NZ,1561588441,81,-46.13,167.69,50.0,1.01
50,Araouane,9,ML,1561588442,7,18.9,-3.53,100.49,7.9
51,Megion,90,RU,1561588443,100,61.04,76.11,50.0,4.47
52,Thompson,90,CA,1561588445,67,55.74,-97.86,60.8,3.36
53,Moroni,20,GR,1561588446,74,35.09,24.92,79.0,11.41
54,Chiquimula,68,GT,1561588447,93,14.8,-89.55,68.63,5.1
55,Nanortalik,100,GL,1561588448,99,60.14,-45.24,38.75,8.39
56,Avarua,43,CK,1561588236,69,-21.21,-159.78,77.0,4.7
57,Mataura,30,NZ,1561588450,81,-46.19,168.86,50.0,1.01
58,Bredasdorp,0,ZA,1561588452,93,-34.53,20.04,55.99,2.24
59,Swan River,81,CA,1561588453,63,52.11,-101.27,64.85,4.52
60,Tuktoyaktuk,90,CA,1561588454,80,69.44,-133.03,39.2,18.34
61,Cururupu,82,BR,1561588455,95,-1.82,-44.87,73.49,2.26
62,Waipawa,0,NZ,1561588456,96,-39.94,176.59,39.0,3.18
63,Port Blair,100,IN,1561588458,81,11.67,92.75,83.93,20.09
64,Carnarvon,0,ZA,1561588462,42,-30.97,22.13,40.37,5.44
65,Nalgonda,94,IN,1561588463,70,17.05,79.27,81.23,16.46
66,Port Antonio,20,JM,1561588464,62,18.18,-76.45,87.8,23.04
67,Hithadhoo,58,MV,1561588465,72,-0.6,73.08,84.11,8.81
68,Lagoa,0,PT,1561588466,72,37.14,-8.45,68.0,8.05
69,Chokurdakh,0,RU,1561588468,32,70.62,147.9,65.57,13.65
70,Codrington,75,AU,1561588469,100,-28.95,153.24,60.8,9.48
71,Sendafa,75,ET,1561588473,67,9.16,39.02,62.6,4.7
72,Castro,90,CL,1561588474,93,-42.48,-73.76,46.4,11.41
73,Qaanaaq,13,GL,1561588476,68,77.48,-69.36,36.23,3.49
74,Touros,20,BR,1561588477,88,-5.2,-35.46,77.0,5.82
75,Pokhara,63,NP,1561588478,77,28.21,83.99,56.39,2.3
76,Port Elizabeth,1,US,1561588479,45,39.31,-74.98,91.0,8.05
77,Norman Wells,40,CA,1561588480,41,65.28,-126.83,59.0,8.05
78,Yakeshi,100,CN,1561588481,80,49.28,120.73,61.43,15.86
79,Hobart,0,AU,1561588483,86,-42.88,147.33,43.0,12.75
80,Victoria,75,BN,1561588406,94,5.28,115.24,78.8,13.0
81,Paamiut,100,GL,1561588485,100,61.99,-49.67,40.37,4.85
82,Mahibadhoo,100,MV,1561588486,72,3.78,72.97,83.75,6.62
83,Baikunthpur,100,IN,1561588487,83,23.26,82.56,76.73,9.15
84,Lebu,75,ET,1561588489,67,8.96,38.73,62.6,4.7
85,Kahului,90,US,1561588490,100,20.89,-156.47,82.4,11.41
86,Wagar,90,US,1561588491,62,31.44,-87.99,93.0,5.97
87,Gimli,24,CA,1561588495,30,50.63,-96.99,81.0,3.0
88,La Ronge,75,CA,1561588496,67,55.1,-105.3,62.6,9.17
89,Northam,75,AU,1561588498,76,-31.65,116.67,53.6,8.05
90,Hermanus,0,ZA,1561588499,90,-34.42,19.24,55.99,5.01
91,Provideniya,90,RU,1561588500,87,64.42,-173.23,53.6,13.42
92,Saint-Augustin,75,CA,1561588501,65,45.63,-73.98,80.01,5.82
93,Eureka,75,US,1561588361,72,40.8,-124.16,69.8,11.41
94,Svetlaya,100,RU,1561588506,98,46.54,138.33,43.97,3.6
95,Srandakan,100,ID,1561588508,80,-7.94,110.25,76.19,13.33
96,Srednekolymsk,77,RU,1561588509,29,67.46,153.71,70.97,18.25
97,Bluff,10,AU,1561588510,65,-23.58,149.07,68.09,25.19
98,Cumana,20,VE,1561588511,74,10.46,-64.17,84.2,25.77
99,Arica,0,CL,1561588512,67,-18.48,-70.32,62.6,8.05
100,Sioux Lookout,75,CA,1561588273,60,50.1,-91.92,78.8,10.29
101,Longyearbyen,40,NO,1561588514,70,78.22,15.63,42.8,14.99
102,Nikolskoye,0,RU,1561588515,82,59.7,30.79,57.99,4.34
103,Hambantota,75,LK,1561588517,100,6.12,81.12,78.8,5.82
104,Ewa Beach,90,US,1561588518,69,21.32,-158.01,82.4,14.07
105,Beloha,0,MG,1561588519,84,-25.17,45.06,65.21,11.52
106,Kaitangata,0,NZ,1561588520,69,-46.28,169.85,48.0,1.99
107,Mar del Plata,86,AR,1561588521,72,-46.43,-67.52,38.39,10.16
108,Kapaa,90,US,1561588321,83,22.08,-159.32,78.8,13.87
109,Tual,51,ID,1561588527,84,-5.67,132.75,78.53,22.17
110,Georgiyevka,76,RU,1561588528,80,52.25,40.45,59.09,9.04
111,Vila Velha,0,BR,1561588529,74,-3.71,-38.6,80.6,10.29
112,Ayan,0,IR,1561588530,65,38.23,44.7,55.31,2.15
113,Coihueco,90,CL,1561588275,100,-36.63,-71.83,55.0,12.75
114,Saint George,40,GR,1561588532,61,39.45,22.34,80.01,1.25
115,Nosy Varika,13,MG,1561588533,92,-20.58,48.53,65.57,8.08
116,Tororo,76,UG,1561588535,92,0.69,34.18,63.05,4.03
117,Husavik,0,CA,1561588536,30,50.56,-96.99,81.0,3.0
118,Raahe,75,FI,1561588540,82,64.68,24.47,55.4,4.7
119,Klaksvik,19,FO,1561588541,93,62.23,-6.59,50.0,4.7
120,Seymour,0,US,1561588542,51,33.59,-99.26,91.0,11.01
121,Muisne,40,EC,1561588544,83,0.61,-80.02,80.6,5.82
122,Padang,63,ID,1561588435,75,-0.92,100.36,81.23,6.85
123,Lavrentiya,100,RU,1561588546,98,65.58,-170.99,48.47,11.14
124,Airai,9,TL,1561588547,58,-8.93,125.41,73.67,3.36
125,Chumikan,0,RU,1561588548,48,54.72,135.31,61.43,1.59
126,Vaasa,75,FI,1561588549,93,63.1,21.62,55.4,3.36
127,Bethel,90,US,1561588383,82,60.79,-161.76,66.2,14.99
128,New Norfolk,0,AU,1561588552,86,-42.78,147.06,43.0,12.75
129,Cherskiy,22,RU,1561588553,33,68.75,161.3,66.29,11.12
130,Saint-Joseph,0,FR,1561588554,65,43.56,6.97,84.2,5.82
131,Deming,1,US,1561588555,9,32.27,-107.76,96.8,5.82
132,Tshikapa,43,CD,1561588557,38,-6.42,20.79,69.89,2.19
133,Buraydah,0,SA,1561588558,30,26.33,43.97,86.0,3.36
134,Fairlie,40,US,1561588559,52,33.31,-95.96,91.4,5.82
135,Hovd,75,NO,1561588560,81,63.83,10.7,53.01,13.87
136,Mansa,40,IN,1561588561,79,23.43,72.66,84.2,4.7
137,Ilulissat,20,GL,1561588562,75,69.22,-51.1,44.6,11.41
138,Naze,100,NG,1561588563,98,5.43,7.07,71.33,2.42
139,San Patricio,0,PY,1561588565,75,-26.98,-56.83,44.33,5.14
140,Fortuna,90,US,1561588566,49,40.6,-124.16,69.8,11.41
141,Wanning,0,AT,1561588567,65,48.64,13.53,77.0,2.24
142,Wajima,100,JP,1561588568,93,37.4,136.9,69.89,16.33
143,Luangwa,0,MZ,1561588569,81,-15.62,30.4,58.19,4.45
144,Andros Town,40,BS,1561588570,62,24.73,-77.79,87.8,6.93
145,Turayf,0,SA,1561588572,28,31.68,38.65,84.2,13.87
146,Tezu,100,IN,1561588573,98,27.93,96.16,72.41,4.88
147,Harlingen,90,NL,1561588423,82,53.18,5.41,60.01,12.75
148,Borodyanka,100,UA,1561588575,56,50.64,29.92,73.0,6.71
149,Alexandria,4,RO,1561588576,82,43.97,25.33,69.53,3.31
150,Kiruna,100,SE,1561588577,75,67.86,20.23,46.4,5.82
151,Deputatskiy,0,RU,1561588579,27,69.3,139.9,73.13,7.78
152,Souillac,0,FR,1561588580,62,45.6,-0.6,84.2,6.93
153,Aksu,0,KZ,1561588581,93,52.04,76.93,62.6,4.47
154,Anloga,72,GH,1561588585,87,5.79,0.9,76.55,9.86
155,Campo Maior,87,BR,1561588586,66,-4.83,-42.16,76.55,3.31
156,Ilheus,20,BR,1561588588,100,-14.79,-39.05,73.4,1.12
157,Ambon,0,FR,1561588589,88,47.55,-2.56,77.0,11.41
158,Ponta do Sol,78,BR,1561588590,57,-20.63,-46.0,66.47,4.43
159,Henties Bay,57,NA,1561588591,93,-22.12,14.28,55.99,5.99
160,Hirara,75,JP,1561588592,83,24.8,125.28,82.4,13.87
161,Nouadhibou,0,MR,1561588593,78,20.93,-17.03,71.6,16.11
162,Paita,0,PE,1561588594,290,-5.09,-81.11,62.6,14.99
163,Torbay,20,CA,1561588596,71,47.66,-52.73,54.0,5.82
164,Novyy Urengoy,18,RU,1561588597,66,66.08,76.63,47.39,14.76
165,Sanchor,55,IN,1561588598,66,24.76,71.77,86.99,14.79
166,Pevek,10,RU,1561588599,85,69.7,170.27,33.89,15.05
167,Benguela,66,AO,1561588600,84,-12.58,13.4,69.17,16.02
168,Guerrero Negro,100,MX,1561588601,82,27.97,-114.04,64.49,13.0
169,Saskylakh,100,RU,1561588603,75,71.97,114.09,52.25,17.45
170,Katsuura,75,JP,1561588604,100,33.93,134.5,75.2,25.28
171,Izhma,63,RU,1561588605,64,65.01,53.91,50.45,2.89
172,Ahipara,0,NZ,1561588606,66,-35.17,173.16,56.03,15.59
173,Saint-Philippe,75,CA,1561588607,65,45.36,-73.48,80.01,13.87
174,Iqaluit,20,CA,1561588380,81,63.75,-68.52,44.6,16.11
175,Olavarria,90,AR,1561588552,57,-36.89,-60.32,46.99,3.0
176,Salihorsk,99,BY,1561588610,95,52.79,27.54,68.27,8.97
177,Santa Vitoria do Palmar,41,BR,1561588611,71,-33.52,-53.37,46.13,6.58
178,Grand Gaube,75,MU,1561588613,94,-20.01,57.66,73.4,13.87
179,Ben Tre,100,VN,1561588614,92,10.24,106.37,78.53,8.28
180,Moose Factory,40,CA,1561588615,64,51.26,-80.61,71.6,10.29
181,Pekan,75,MY,1561588616,100,3.49,103.39,75.0,2.1
182,Cidreira,16,BR,1561588617,57,-30.17,-50.22,47.21,2.64
183,Esperance,90,AU,1561588618,87,-33.86,121.89,55.4,14.99
184,Buritis,0,BR,1561588620,48,-15.62,-46.42,67.55,1.52
185,Houma,99,CN,1561588621,42,35.63,111.36,77.09,5.73
186,Sabang,99,PH,1561588622,81,13.8,121.11,80.51,6.67
187,Hofn,63,IS,1561588623,83,64.25,-15.21,44.33,13.0
188,Mahebourg,75,MU,1561588624,94,-20.41,57.7,73.4,13.87
189,Tura,100,RU,1561588625,62,64.27,100.22,68.09,2.21
190,Georgetown,40,GY,1561588627,78,6.8,-58.16,84.2,6.93
191,Oktyabrskiy,40,RU,1561588628,93,55.61,37.97,59.0,2.24
192,Aswan,0,EG,1561588630,17,24.09,32.9,100.4,9.17
193,Khandyga,0,RU,1561588631,39,62.65,135.58,74.03,2.84
194,Tocopilla,74,CL,1561588632,84,-22.09,-70.2,58.91,9.64
195,Corrente,0,BR,1561588633,51,-17.45,-44.68,66.83,3.13
196,Coihaique,90,CL,1561588634,86,-45.58,-72.07,42.8,3.31
197,Labuhan,8,ID,1561588635,77,-2.54,115.51,77.09,1.01
198,Kokkola,75,FI,1561588637,100,63.84,23.13,55.99,5.82
199,Sitka,49,US,1561588638,46,37.17,-99.65,91.0,17.0
200,Nanyuki,0,KE,1561588639,91,0.01,37.07,54.41,7.45
201,Kurmanayevka,57,RU,1561588640,83,52.51,52.07,51.89,2.62
202,Cubulco,20,GT,1561588641,54,15.11,-90.63,78.8,20.8
203,Uvalde,1,US,1561588642,52,29.21,-99.79,91.99,6.93
204,Pisco,16,PE,1561588644,30,-13.71,-76.2,71.6,5.82
205,Nhulunbuy,66,AU,1561588645,94,-12.18,136.78,68.0,15.05
206,Zeya,59,RU,1561588646,44,53.74,127.27,66.47,5.3
207,Montgomery,1,US,1561588647,58,32.37,-86.3,91.0,3.36
208,Brae,90,GB,1561588648,87,60.4,-1.35,51.8,11.41
209,College,75,US,1561588650,20,64.86,-147.8,77.0,4.7
210,Lahij,100,YE,1561588651,41,13.06,44.88,92.57,7.74
211,Dunda,0,IN,1561588652,50,30.62,78.32,70.43,9.22
212,Sao Filipe,0,CV,1561588653,85,14.9,-24.5,74.39,22.53
213,Taltal,0,CL,1561588654,85,-25.41,-70.49,50.45,3.31
214,Tahe,99,CN,1561588655,51,52.34,124.71,62.87,6.02
215,Qasigiannguit,20,GL,1561588656,75,68.82,-51.19,44.6,11.41
216,Leningradskiy,59,RU,1561588658,82,69.38,178.42,35.87,13.38
217,Chikwawa,22,MW,1561588659,95,-16.03,34.79,58.73,1.95
218,Tasiilaq,100,GL,1561588660,93,65.61,-37.64,42.8,2.24
219,Evensk,33,RU,1561588661,46,61.92,159.24,61.25,20.47
220,Sirnak,0,TR,1561588662,22,37.52,42.46,78.35,4.88
221,Grants Pass,20,US,1561588509,39,42.44,-123.33,71.6,11.41
222,Hamilton,20,CA,1561588456,44,43.26,-79.87,82.4,13.87
223,Port Lincoln,31,AU,1561588636,61,-34.72,135.86,60.53,30.89
224,Zlobin,0,HR,1561588667,57,45.29,14.65,80.6,3.36
225,Lazaro Cardenas,75,MX,1561588668,15,28.39,-105.62,93.2,6.93
226,Russell,1,US,1561588669,32,38.9,-98.86,95.0,16.11
227,Arroyo,75,BO,1561588670,78,-11.08,-66.08,80.6,11.41
228,Vostok,100,RU,1561588666,99,46.45,135.83,58.91,1.61
229,Sicuani,12,PE,1561588673,56,-14.27,-71.23,38.39,7.63
230,Grindavik,90,IS,1561588674,100,63.84,-22.43,51.8,16.11
231,Lexington,1,US,1561588462,48,38.05,-84.5,89.6,2.89
232,Mopti,0,ML,1561588676,34,14.49,-4.19,96.8,11.41
233,Kaka,0,TM,1561588677,14,37.35,59.62,84.83,7.11
234,Tupi Paulista,100,BR,1561588678,91,-21.38,-51.58,66.65,4.94
235,Atambua,7,ID,1561588679,67,-9.11,124.89,75.83,14.56
236,Hokitika,0,NZ,1561588681,62,-42.72,170.96,49.01,5.44
237,Seoul,75,KR,1561588549,83,37.57,126.98,73.4,1.12
238,Kurchum,0,KZ,1561588683,60,48.57,83.65,56.39,6.4
239,Tucupita,25,VE,1561588684,81,9.06,-62.05,77.27,9.66
240,Hays,1,US,1561588685,43,38.88,-99.33,95.0,17.22
241,Vuktyl,0,RU,1561588686,71,63.86,57.31,47.57,2.46
242,Kedgwick,100,CA,1561588687,78,47.65,-67.35,60.17,8.05
243,Nacala,2,MZ,1561588689,83,-14.56,40.69,65.39,7.81
244,Hualmay,4,PE,1561588690,85,-11.1,-77.61,62.87,14.03
245,Camocim,71,BR,1561588691,75,-2.9,-40.84,75.83,7.43
246,Fairbanks,75,US,1561588659,20,64.84,-147.72,79.0,4.7
247,Faanui,1,PF,1561588694,73,-16.48,-151.75,80.51,6.55
248,Yellowknife,75,CA,1561588622,67,62.45,-114.38,64.0,19.46
249,Beringovskiy,91,RU,1561588696,75,63.05,179.32,52.97,4.07
250,Sumbawanga,27,TZ,1561588697,74,-7.95,31.62,52.97,4.07
251,Vao,100,EE,1561588698,98,59.1,26.19,54.95,2.95
252,Mezhdurechensk,7,RU,1561588699,75,53.69,88.07,59.63,1.92
253,Cayenne,20,GF,1561588700,83,4.94,-52.33,78.8,4.7
254,Te Anau,7,NZ,1561588664,78,-45.41,167.72,45.05,0.6
255,Port Macquarie,40,AU,1561588437,100,-31.43,152.91,57.99,5.82
256,Kavieng,89,PG,1561588704,73,-2.57,150.8,84.11,8.41
257,Adre,100,TD,1561588714,54,13.47,22.2,78.71,10.29
258,Cruzeiro do Sul,75,BR,1561588715,66,-7.63,-72.67,84.2,4.7
259,Yerbogachen,28,RU,1561588716,50,61.28,108.01,72.59,2.82
260,De-Kastri,24,RU,1561588718,65,51.48,140.77,50.99,7.27
261,Lorengau,90,PG,1561588719,79,-2.02,147.27,83.21,6.35
262,Constitucion,40,MX,1561588683,12,23.99,-104.67,87.01,19.46
263,Yanam,43,IN,1561588721,80,16.73,82.22,81.95,8.95
264,Jalu,0,LY,1561588722,63,29.03,21.55,79.25,8.57
265,Jutai,62,BR,1561588663,97,-1.71,-47.89,73.67,3.06
266,Cabadiangan,90,PH,1561588724,78,10.45,123.98,82.4,3.36
267,Lanxi,68,CN,1561588725,99,29.21,119.46,80.01,0.2
268,Coquimbo,0,CL,1561588727,76,-29.95,-71.34,62.01,9.17
269,Bonthe,100,SL,1561588728,90,7.53,-12.5,77.45,7.05
270,Paramonga,56,PE,1561588729,90,-10.68,-77.82,61.07,12.73
271,Firozpur,40,IN,1561588730,57,30.96,74.61,78.8,5.82
272,Arlit,48,NE,1561588731,22,18.74,7.39,94.01,8.43
273,Juneau,75,US,1561588732,53,58.3,-134.42,75.2,12.75
274,Langham,40,CA,1561588734,40,52.36,-106.96,73.4,8.05
275,Auki,52,NG,1561588735,62,12.18,6.51,77.09,13.18
276,Hasaki,75,JP,1561588736,88,35.73,140.83,77.0,6.93
277,Vyselki,42,RU,1561588737,46,45.58,39.66,73.31,8.68
278,Mayo,40,CA,1561588738,19,63.59,-135.9,71.6,5.82
279,Aykhal,0,RU,1561588739,59,65.95,111.51,64.4,2.24
280,Rwamagana,100,RW,1561588740,92,-1.95,30.43,61.79,3.15
281,Jasper,20,US,1561588576,36,33.83,-87.28,95.0,4.38
282,Narsaq,100,GL,1561588743,93,60.91,-46.05,48.2,6.93
283,Chapais,90,CA,1561588744,82,49.78,-74.86,64.4,11.41
284,Cidahu,0,ID,1561588745,87,-6.55,106.01,72.41,1.5
285,Esso,96,RU,1561588746,62,55.93,158.7,48.29,8.68
286,Tawang,92,BT,1561588747,97,27.59,91.87,57.29,2.68
287,Avera,1,US,1561588749,51,33.19,-82.53,89.6,4.7
288,La Palma,16,CO,1561588750,84,5.36,-74.39,73.85,2.93
289,Nemuro,89,JP,1561588751,92,43.32,145.57,52.61,1.59
290,Ostrovnoy,100,RU,1561588753,79,68.05,39.51,51.35,11.41
291,Kovernino,34,RU,1561588754,97,57.13,43.81,47.03,2.86
292,Ankazobe,75,MG,1561588755,82,-18.32,47.12,59.0,3.36
293,Surt,0,LY,1561588756,88,31.21,16.59,75.83,4.12
294,Olinda,59,AU,1561588757,76,-37.84,145.39,53.01,11.41
295,Sola,100,TZ,1561588634,65,-3.17,33.8,69.17,2.46
296,Zhigansk,0,RU,1561588759,50,66.77,123.37,73.31,9.75
297,Fremont,40,US,1561588678,60,37.55,-121.99,75.0,16.11
298,Fuling,100,CN,1561588762,91,29.71,107.39,72.95,2.19
299,Anadyr,90,RU,1561588763,93,64.73,177.51,44.6,20.13
300,San Policarpo,100,PH,1561588764,82,12.18,125.51,80.51,3.44
301,Tommot,88,RU,1561588765,58,58.97,126.27,64.13,5.75
302,Namatanai,90,PG,1561588766,80,-3.66,152.44,81.41,13.22
303,Nyrob,0,RU,1561588767,73,60.74,56.73,43.79,2.44
304,Byron Bay,75,AU,1561588769,93,-28.65,153.62,64.99,6.93
305,Sal Rei,75,CV,1561588770,78,16.18,-22.92,75.2,25.28
306,Salalah,90,OM,1561588690,88,17.01,54.1,82.4,10.29
307,Balkanabat,41,TM,1561588772,25,39.51,54.36,91.13,17.67
308,Zhezkazgan,99,KZ,1561588773,63,47.8,67.71,70.43,7.31
309,Kudahuvadhoo,90,MV,1561588774,72,2.67,72.89,82.49,2.04
310,Luyang,93,CN,1561588775,94,31.88,117.26,71.6,4.47
311,Rosita,100,NI,1561588777,97,13.92,-84.4,74.75,2.42
312,Rypefjord,75,NO,1561588778,81,70.63,23.67,46.4,27.51
313,Strezhevoy,90,RU,1561588779,100,60.73,77.6,50.0,4.47
314,Coahuayana,94,MX,1561588780,66,18.62,-100.35,82.85,2.19
315,Vardo,20,US,1561588781,38,39.62,-77.74,89.6,12.75
316,Homestead,75,US,1561588782,48,25.47,-80.48,89.6,8.05
317,Luanda,0,AO,1561588783,88,-8.83,13.24,69.8,5.82
318,Druzhba,100,UA,1561588785,95,52.05,33.94,64.67,3.58
319,Itarema,67,BR,1561588786,83,-2.92,-39.92,74.75,6.51
320,Yacuiba,0,AR,1561588787,62,-22.01,-63.68,59.0,9.17
321,Berlevag,0,NO,1561588788,81,70.86,29.09,48.2,13.87
322,Axim,79,GH,1561588789,87,4.87,-2.24,76.91,12.08
323,Cap-aux-Meules,75,CA,1561588790,76,47.38,-61.86,57.2,10.29
324,Viravanallur,100,IN,1561588792,84,8.7,77.53,72.77,6.78
325,Darnah,0,LY,1561588793,81,32.77,22.64,78.35,18.23
326,Cervo,50,BR,1561588794,78,-22.19,-46.24,63.23,3.62
327,Dahra,0,DZ,1561588795,61,36.25,0.85,80.6,6.93
328,Camacha,20,PT,1561588663,72,33.08,-16.33,68.0,10.29
329,Richards Bay,0,ZA,1561588797,71,-28.77,32.06,67.91,18.9
330,Upernavik,0,GL,1561588630,87,72.79,-56.15,34.25,11.05
331,Udachnyy,0,RU,1561588799,59,66.42,112.4,64.4,2.24
332,Esna,17,RO,1561588801,65,45.2,27.57,67.55,6.87
333,Sioux City,1,US,1561588668,40,42.5,-96.41,87.01,9.17
334,Great Falls,40,US,1561588803,35,47.5,-111.29,73.99,5.82
335,Isla Mujeres,75,MX,1561588804,70,21.23,-86.73,87.8,9.17
336,Nanpiao,88,CN,1561588805,32,41.1,120.75,79.07,8.46
337,Puerto Escondido,20,MX,1561588806,70,15.86,-97.07,86.0,3.36
338,Altamirano,0,AR,1561588807,68,-35.36,-58.15,53.01,9.17
339,Meridian,20,US,1561588809,17,43.61,-116.39,88.0,10.29
340,Liku,46,ID,1561588629,78,-0.73,119.89,82.13,7.83
341,Parrita,40,CR,1561588811,60,9.52,-84.33,78.8,19.46
342,Cockburn Town,51,TC,1561588789,81,21.46,-71.14,81.77,15.9
343,Diamantino,27,BR,1561588813,62,-14.4,-56.44,74.03,1.5
344,Geraldton,75,CA,1561588814,41,49.72,-86.95,75.2,14.99
345,Margate,0,AU,1561588815,86,-43.03,147.26,46.0,12.75
346,Nichinan,75,JP,1561588816,88,31.65,131.31,78.8,5.82
347,Broken Hill,0,AU,1561588804,76,-31.97,141.45,48.2,11.41
348,Cravo Norte,41,CO,1561588819,92,6.3,-70.2,77.63,5.53
349,Qaqortoq,100,GL,1561588820,93,60.72,-46.03,48.2,6.93
350,Abu Dhabi,12,AE,1561588748,56,24.47,54.37,95.0,2.24
351,Kendari,4,ID,1561588822,80,-3.99,122.52,76.73,1.7
352,Takoradi,63,GH,1561588823,95,4.89,-1.75,73.13,3.65
353,Iberia,9,PE,1561588824,64,-11.41,-69.49,77.09,2.86
354,Kathu,0,ZA,1561588825,52,-27.7,23.05,39.99,7.36
355,Yantai,86,CN,1561588827,52,37.53,121.39,82.99,5.46
356,Fomboni,17,KM,1561588828,78,-12.28,43.74,76.37,17.96
357,Saldanha,0,PT,1561588547,72,41.42,-6.55,65.03,1.03
358,Port Shepstone,36,ZA,1561588830,93,-30.74,30.45,53.33,6.58
359,Creel,90,MX,1561588582,24,27.75,-107.63,77.99,5.19
360,Balasore,100,IN,1561588832,82,21.5,86.92,81.23,7.85
361,Klyuchi,12,RU,1561588833,71,52.25,79.17,63.95,7.34
362,Pangody,100,RU,1561588834,68,65.85,74.49,46.85,14.25
363,San Remo,0,AR,1561588836,28,-31.31,-64.31,52.0,9.17
364,Teahupoo,75,PF,1561588837,70,-17.83,-149.27,84.2,10.29
365,Dalmatovo,100,RU,1561588841,78,56.26,62.94,50.63,5.08
366,Bereda,40,ES,1561588842,82,43.27,-7.54,64.4,1.12
367,Bosaso,100,SO,1561588843,72,11.28,49.18,87.53,4.52
368,Kavaratti,97,IN,1561588844,77,10.57,72.64,82.85,15.41
369,Jieshi,23,CN,1561588846,77,22.82,115.83,84.29,1.36
370,Dunedin,0,NZ,1561588750,64,-45.87,170.5,50.99,7.78
371,Matagami,99,NG,1561588848,98,9.67,8.4,68.81,3.42
372,Alice Springs,16,AU,1561588615,59,-23.7,133.88,33.8,5.82
373,Mehamn,0,NO,1561588850,81,71.03,27.85,48.2,13.87
374,Puerto Narino,75,CO,1561588851,88,-3.77,-70.38,82.4,3.36
375,Yamada,75,JP,1561588852,61,36.58,137.08,80.6,13.87
376,Valparaiso,75,US,1561588791,18,41.47,-87.06,90.0,5.75
377,Mitchell,1,US,1561588854,45,43.71,-98.03,87.8,10.29
378,Sinop,10,TR,1561588572,87,42.03,35.15,71.69,7.14
379,Genhe,100,CN,1561588857,54,50.78,121.52,61.43,10.83
380,Edd,99,ER,1561588858,47,13.93,41.69,88.07,2.91
381,Honiara,20,SB,1561588672,79,-9.43,159.96,84.2,1.79
382,Ulladulla,20,AU,1561588687,100,-35.36,150.48,50.0,5.82
383,Staryy Krym,0,UA,1561588861,73,45.03,35.1,62.87,4.74
384,Caluquembe,0,AO,1561588862,69,-13.78,14.68,51.35,2.82
385,Shizunai,100,JP,1561588863,87,42.33,142.37,59.81,2.37
386,Kashan,8,IR,1561588864,9,33.99,51.44,91.4,8.05
387,Tuy Hoa,19,VN,1561588866,63,13.08,109.3,81.59,12.64
388,Moanda,6,CD,1561588867,77,-5.93,12.38,73.67,9.01
389,Poum,0,MK,1561588868,87,41.28,20.71,58.37,4.05
390,Dicabisagan,80,PH,1561588869,79,17.08,122.42,81.41,1.61
391,Hailey,75,US,1561588741,30,43.52,-114.32,71.6,6.46
392,Bambous Virieux,75,MU,1561588871,94,-20.34,57.76,73.4,13.87
393,Chipinge,61,ZW,1561588872,85,-20.19,32.62,54.41,2.71
394,Portland,40,US,1561588720,77,43.66,-70.25,75.0,9.17
395,Nurota,17,UZ,1561588875,33,40.56,65.69,73.4,9.17
396,Laguna,75,BZ,1561588876,74,16.17,-88.94,86.0,9.17
397,Saint Anthony,1,US,1561588877,28,43.97,-111.68,82.4,6.93
398,Mecca,28,SA,1561588878,32,21.43,39.83,89.33,5.7
399,Arnhem,75,NL,1561588879,87,51.98,5.91,64.0,8.05
400,Faya,0,SA,1561588880,17,18.39,42.45,75.2,3.36
401,Aguada de Pasajeros,0,CU,1561588882,41,22.38,-80.85,95.0,12.75
402,Lancaster,1,US,1561588740,51,40.04,-76.31,89.01,6.53
403,Kruisfontein,20,ZA,1561588658,88,-34.0,24.73,53.15,5.93
404,Yarada,76,IN,1561588885,78,17.65,83.27,83.93,10.58
405,Roald,86,NO,1561588886,93,62.58,6.12,51.8,3.36
406,Gushikawa,75,JP,1561588887,83,26.35,127.87,80.6,3.36
407,San Carlos de Bariloche,40,AR,1561588888,65,-41.13,-71.31,41.0,14.99
408,Talnakh,0,RU,1561588890,57,69.49,88.39,44.6,8.95
409,Lewistown,1,US,1561588891,74,40.39,-90.15,90.0,9.17
410,Bowen,90,AU,1561588784,100,-20.01,148.25,66.99,4.7
411,Belaya Gora,27,RU,1561588896,23,68.54,146.19,68.09,15.23
412,Banda Aceh,76,ID,1561588750,74,5.56,95.32,83.57,13.4
413,Havelock,1,US,1561588901,55,34.88,-76.9,87.8,11.41
414,Port Hardy,40,CA,1561588902,68,50.7,-127.42,64.4,6.93
415,Lagos,97,NG,1561588904,93,6.46,3.39,74.93,6.17
416,Orlik,20,PL,1561588905,73,53.95,17.74,70.0,17.22
417,Loukhi,100,RU,1561588906,69,66.08,33.04,51.17,5.97
418,Yeniseysk,6,RU,1561588907,65,58.45,92.17,66.29,3.8
419,Celestun,85,MX,1561588820,77,20.87,-90.4,83.03,27.38
420,Carballo,40,ES,1561588909,82,43.21,-8.69,64.99,1.12
421,Lishui,28,CN,1561588910,89,28.45,119.91,75.47,0.56
422,Blagoyevo,80,RU,1561588912,62,63.37,47.92,51.17,2.77
423,Aksarka,100,RU,1561588913,68,66.56,67.8,47.57,5.64
424,Cabo San Lucas,5,MX,1561588708,17,22.89,-109.91,93.99,14.99
425,Madimba,75,CM,1561588668,94,4.42,9.93,75.2,3.36
426,Dudinka,0,RU,1561588916,51,69.41,86.18,44.6,8.95
427,Nishihara,1,JP,1561588917,78,35.74,139.53,82.99,1.01
428,Tingo Maria,20,PE,1561588918,58,-9.29,-76.01,84.2,3.36
429,Markova,90,RU,1561588919,100,52.21,104.21,53.6,6.71
430,Waingapu,0,ID,1561588921,73,-9.65,120.26,71.51,12.75
431,Ostrow Mazowiecka,30,PL,1561588922,44,52.8,21.9,73.99,10.92
432,Guilin,90,CN,1561588923,100,25.28,110.29,77.0,2.24
433,Shimoda,100,JP,1561588924,76,34.7,138.93,77.0,7.65
434,Keetmanshoop,0,NA,1561588925,20,-26.57,18.15,51.8,8.05
435,Svetlogorsk,40,RU,1561588926,81,53.14,59.15,48.2,4.47
436,Belfast,0,GB,1561588769,76,54.6,-5.93,55.99,6.93
437,Worthington,1,US,1561588929,45,43.62,-95.6,88.0,8.05
438,Gorey,34,SO,1561588930,90,3.22,43.63,69.17,13.62
439,Colonia,0,RO,1561588931,72,46.6,23.97,68.0,8.05
440,Bandarbeyla,88,SO,1561588932,64,9.49,50.81,78.53,28.01
441,Atar,4,MR,1561588933,12,20.52,-13.05,97.25,15.48
442,Yar-Sale,63,RU,1561588935,74,66.83,70.83,46.13,4.18
443,Galesong,20,ID,1561588936,94,-5.32,119.37,71.6,2.24
444,Mgandu,6,TZ,1561588937,82,-5.96,34.11,58.55,9.48
445,Amravati,64,IN,1561588938,62,20.93,77.76,86.27,9.08
446,Neiafu,40,TO,1561588939,83,-18.65,-173.98,77.0,5.82
447,Aketi,100,CD,1561588941,95,2.74,23.78,69.71,0.65
448,Podgorica,0,ME,1561588942,37,42.44,19.26,86.0,8.05
449,Parfenyevo,1,RU,1561588943,98,58.48,43.41,43.79,4.54
450,Bangassou,100,CF,1561588944,91,4.74,22.82,68.99,1.01
451,Turbat,2,PK,1561588945,89,26.0,63.05,78.53,4.81
452,Broome,47,GB,1561588946,87,52.47,1.45,57.99,9.17
453,Lillooet,40,CA,1561588948,33,50.69,-121.94,77.0,3.36
454,Aleksandrovsk-Sakhalinskiy,98,RU,1561588949,86,50.9,142.16,47.39,13.96
455,Petropavlovsk-Kamchatskiy,75,RU,1561588950,87,53.05,158.65,48.2,2.24
456,Raudeberg,98,NO,1561588951,76,61.99,5.14,51.8,6.93
457,Miri,42,NG,1561588952,83,10.31,9.75,74.03,2.84
458,Gari,94,RU,1561588953,70,59.43,62.35,49.55,3.29
459,Sao Felix do Xingu,84,BR,1561588674,69,-6.64,-51.99,75.11,3.87
460,Chhapar,2,IN,1561588956,32,27.82,74.44,94.37,13.51
461,Alofi,75,NU,1561588957,73,-19.06,-169.92,77.0,14.99
462,Huarmey,12,PE,1561588832,87,-10.07,-78.15,63.23,14.61
463,Guiyang,75,CN,1561588959,88,26.58,106.71,73.4,4.47
464,Annau,0,TM,1561588960,17,37.89,58.52,86.0,6.93
465,Veere,0,NL,1561588961,82,51.55,3.67,64.0,16.11
466,Linxia,100,CN,1561588963,98,35.6,103.21,49.73,3.24
467,Brewster,1,US,1561588881,77,41.76,-70.08,75.0,5.82
468,Vila Franca do Campo,20,PT,1561588965,77,37.72,-25.43,64.4,14.99
469,Wanaka,0,NZ,1561588966,90,-44.7,169.14,33.01,1.99
470,Rantepao,17,ID,1561588967,90,-2.97,119.9,64.31,2.01
471,Zalha,0,RO,1561588968,72,47.19,23.53,70.0,8.05
472,Sibolga,82,ID,1561588970,79,1.74,98.78,81.59,8.12
473,Baillif,19,GP,1561588971,83,16.02,-61.75,80.6,9.17
474,Marondera,87,ZW,1561588972,72,-18.19,31.55,54.77,5.35
475,Komsomolskiy,86,RU,1561588973,84,67.55,63.78,40.73,5.28
476,Tabuk,100,PH,1561588974,93,17.41,121.44,67.55,1.19
477,Muhammadabad,27,IN,1561588976,53,26.03,83.38,90.23,5.39
478,Orcopampa,12,PE,1561588977,59,-15.27,-72.34,33.35,3.18
479,Lincoln,1,US,1561588978,45,40.8,-96.67,90.0,19.46
480,Ixtapa,75,MX,1561588785,66,20.71,-105.21,86.0,20.8
481,Los Llanos de Aridane,75,ES,1561588980,68,28.66,-17.92,71.6,14.99
482,Obreja,14,RO,1561588981,81,45.48,22.26,65.75,3.27
483,Mirnyy,30,RU,1561588982,94,56.57,36.46,48.65,2.3
484,Outjo,17,NA,1561588984,34,-20.11,16.16,53.6,1.12
485,Saint-Pierre,0,FR,1561588985,78,48.95,4.24,80.6,11.41
486,Palmer,0,AU,1561588986,58,-34.85,139.16,61.0,10.29
487,Belmonte,0,PT,1561588987,96,40.36,-7.35,56.21,1.66
488,Kawasaki,75,JP,1561588988,74,35.52,139.71,82.99,12.75
489,Clyde River,40,CA,1561588990,80,70.47,-68.59,41.0,14.99
490,Yichun,100,CN,1561588991,97,47.72,128.88,54.05,12.15
491,Xining,100,CN,1561588864,98,36.62,101.77,45.23,2.06
492,Kozlovka,75,RU,1561588993,76,55.84,48.25,55.4,2.24
493,Yunyang,100,CN,1561588994,70,32.84,110.81,73.85,3.18
494,Maltahohe,3,NA,1561588995,47,-24.83,16.98,48.11,5.1
495,Santiago del Estero,0,AR,1561588843,38,-27.8,-64.26,50.99,9.15
496,Gat,0,SN,1561588997,78,14.69,-16.54,78.8,8.05
497,Charlestown,1,US,1561588999,88,41.38,-71.64,81.0,10.29
498,Ulaangom,22,MN,1561589000,39,49.98,92.07,61.97,2.37
499,Eregli,0,TR,1561589001,57,37.51,34.05,70.25,2.59
500,Maniitsoq,70,GL,1561589002,73,65.42,-52.9,50.09,4.74
501,Chicama,75,PE,1561589003,88,-7.84,-79.15,64.4,9.17
502,Texarkana,1,US,1561589005,55,33.44,-94.04,89.01,8.05
503,Batemans Bay,53,AU,1561589006,85,-35.71,150.18,51.01,3.0
504,At-Bashi,58,KG,1561589007,65,41.17,75.81,47.75,4.83
505,Awjilah,0,LY,1561589011,58,29.14,21.3,79.25,10.67
506,Sohag,0,EG,1561589015,14,26.55,31.7,93.2,9.17
507,Debre Birhan,100,ET,1561589016,60,9.68,39.53,56.75,2.91
508,Buala,74,SB,1561589006,71,-8.15,159.59,84.47,7.81
509,Rudnichnyy,65,RU,1561589019,78,59.7,60.29,46.31,2.64
510,Linjiang,0,CN,1561589020,64,41.81,126.91,69.53,4.03
511,Chippewa Falls,20,US,1561589021,37,44.94,-91.39,82.99,10.29
512,Chifeng,100,CN,1561588745,45,42.27,118.96,76.37,7.27
513,Uspantan,70,GT,1561589024,98,15.35,-90.87,61.25,3.04
514,Kota Kinabalu,75,MY,1561589025,83,5.98,116.07,78.01,2.24
515,Pitimbu,0,BR,1561589026,94,-7.47,-34.81,75.2,4.7
516,Bud,97,NO,1561589027,87,62.91,6.91,51.8,12.75
517,Stony Plain,75,CA,1561589028,68,53.53,-114.0,72.0,13.87
518,Santana do Livramento,0,BR,1561589030,72,-30.89,-55.53,40.55,4.09
519,Kortkeros,62,RU,1561589031,100,61.81,51.56,46.0,2.28
520,Dakar,0,SN,1561589001,88,14.69,-17.45,78.8,2.24
521,Hervey Bay,75,AU,1561589033,88,-25.3,152.85,69.01,9.17
522,Hobyo,55,SO,1561589034,68,5.35,48.53,77.27,24.05
523,Inirida,73,CO,1561588857,95,3.87,-67.92,75.29,2.82
524,Amahai,83,ID,1561588917,89,-3.31,129.0,82.0,12.21
525,Kirakira,99,SB,1561589041,72,-10.46,161.92,83.21,1.21
526,Taoudenni,1,ML,1561588825,8,22.68,-3.98,98.15,11.25
527,Aroes,20,PT,1561589043,93,41.46,-8.21,66.0,1.12
528,Baruun-Urt,21,MN,1561588831,54,46.68,113.28,69.89,19.04
529,Imbituba,75,BR,1561589045,67,-28.24,-48.67,57.2,8.05
530,Phan Thiet,56,VN,1561588805,79,10.93,108.1,77.99,7.7
531,Kuching,75,MY,1561589047,94,1.56,110.34,77.0,2.24
532,Timiryazevskoye,0,RU,1561589058,82,56.49,84.88,63.0,4.47
533,Xichang,100,CN,1561589059,95,27.88,102.25,60.71,1.86
534,Victor Harbor,0,AU,1561589060,58,-35.55,138.62,60.01,10.29
535,Aguililla,75,MX,1561589061,75,18.74,-102.79,76.55,5.57
536,Pochutla,75,MX,1561588945,66,15.74,-96.47,88.0,11.41
537,Sabha,59,LY,1561589063,25,27.03,14.43,88.25,14.63
538,Nome,75,US,1561589064,62,30.04,-94.42,91.4,6.93
539,Jumla,5,NP,1561589066,93,29.28,82.18,49.91,1.05
540,Cardston,75,CA,1561589067,59,49.2,-113.32,71.6,6.78
541,Rantoul,40,US,1561589068,48,40.31,-88.16,89.01,9.17
542,Saquarema,0,BR,1561589069,78,-22.93,-42.51,82.4,5.82
543,Chuy,36,UY,1561589070,78,-33.69,-53.46,45.41,8.01
544,Owando,93,CG,1561588907,89,-0.49,15.91,72.59,4.12
545,Bar Harbor,90,US,1561589065,100,44.39,-68.2,60.8,4.7
546,Toledo,0,ES,1561588998,40,39.86,-4.02,86.0,12.75
547,Lasa,0,CY,1561588966,94,34.92,32.53,77.0,6.93
548,Hwange,0,ZW,1561588874,73,-18.35,26.5,54.23,3.47
549,Aklavik,40,CA,1561588964,46,68.22,-135.01,53.6,4.7
550,Ketchikan,1,US,1561588827,56,55.34,-131.65,80.6,16.11
551,Wewak,100,PG,1561589079,75,-3.55,143.63,82.67,1.81
552,Sangar,0,RU,1561588992,44,63.92,127.47,73.49,0.98
553,Rawson,58,AR,1561588927,48,-43.3,-65.11,48.47,20.85
554,Sao Luis de Montes Belos,0,BR,1561589063,58,-16.52,-50.37,67.01,1.99
